,City,Lat,Lng,Max Temp,Humidity,Cloudiness,Wind Speed,Weather Description,Date
0,Kargasok,59.0556,80.8572,17.67,98,100,3.58,overcast clouds,2021-11-30 21:34:11
1,Ushuaia,-54.8,-68.3,60.46,31,75,19.57,broken clouds,2021-11-30 21:29:19
2,Iqaluit,63.7506,-68.5145,8.33,78,75,4.0,broken clouds,2021-11-30 21:34:11
3,Ahipara,-35.1667,173.1667,70.48,60,100,4.0,overcast clouds,2021-11-30 21:34:12
4,Hobyo,5.3505,48.5268,79.05,66,73,18.95,broken clouds,2021-11-30 21:34:13
5,Saint-Philippe,-21.3585,55.7679,76.55,79,38,7.76,scattered clouds,2021-11-30 21:34:13
6,Isangel,-19.55,169.2667,82.51,78,75,0.0,broken clouds,2021-11-30 21:32:43
7,East London,-33.0153,27.9116,66.76,81,85,4.59,light rain,2021-11-30 21:34:13
8,Punta Arenas,-53.15,-70.9167,62.71,39,0,24.16,clear sky,2021-11-30 21:32:39
9,Bubaque,11.2833,-15.8333,82.29,69,5,10.42,clear sky,2021-11-30 21:34:14
10,Kawhia,-38.0651,174.8183,77.38,71,81,6.04,broken clouds,2021-11-30 21:34:14
11,Busselton,-33.65,115.3333,54.63,75,75,3.51,broken clouds,2021-11-30 21:34:15
12,Xining,36.6167,101.7667,17.94,56,0,2.24,clear sky,2021-11-30 21:34:15
13,Villa Bruzual,9.3328,-69.1208,84.13,51,86,2.24,overcast clouds,2021-11-30 21:34:15
14,Half Moon Bay,37.4636,-122.4286,75.92,59,1,10.36,haze,2021-11-30 21:34:16
15,Port Alfred,-33.5906,26.891,66.02,78,89,4.54,light rain,2021-11-30 21:34:16
16,Vaini,-21.2,-175.2,80.76,83,40,12.66,scattered clouds,2021-11-30 21:32:37
17,Galle,6.0367,80.217,77.41,86,81,2.04,broken clouds,2021-11-30 21:34:16
18,Jamestown,42.097,-79.2353,36.99,88,90,8.01,overcast clouds,2021-11-30 21:28:27
19,Srednekolymsk,67.45,153.6833,-16.2,98,100,8.63,overcast clouds,2021-11-30 21:34:17
20,Meulaboh,4.1363,96.1285,75.42,87,83,0.76,broken clouds,2021-11-30 21:34:17
21,Victoria,22.2855,114.1577,61.32,39,21,1.99,few clouds,2021-11-30 21:33:50
22,Atuona,-9.8,-139.0333,78.71,76,5,20.49,clear sky,2021-11-30 21:32:47
23,Klaksvik,62.2266,-6.589,34.72,58,100,18.7,overcast clouds,2021-11-30 21:34:17
24,Port Blair,11.6667,92.75,78.69,85,100,16.93,overcast clouds,2021-11-30 21:34:18
25,Rikitea,-23.1203,-134.9692,76.55,75,0,20.49,clear sky,2021-11-30 21:32:35
26,Mildura,-34.2,142.15,78.08,50,29,9.22,scattered clouds,2021-11-30 21:34:18
27,Barrow,71.2906,-156.7887,-16.58,76,1,12.66,clear sky,2021-11-30 21:34:19
28,New Norfolk,-42.7826,147.0587,65.75,52,74,3.31,broken clouds,2021-11-30 21:32:43
29,Kapaa,22.0752,-159.319,82.38,77,75,1.99,moderate rain,2021-11-30 21:30:30
30,Evensk,61.95,159.2333,3.49,95,100,7.54,light snow,2021-11-30 21:34:19
31,Qaanaaq,77.484,-69.3632,0.66,72,22,6.35,few clouds,2021-11-30 21:34:19
32,Maraa,-1.8333,-65.3667,76.98,93,100,2.44,overcast clouds,2021-11-30 21:34:20
33,Tuktoyaktuk,69.4541,-133.0374,-29.2,68,20,6.91,few clouds,2021-11-30 21:32:45
34,Aleksandrovka,46.8383,32.7612,35.24,67,93,10.94,overcast clouds,2021-11-30 21:34:20
35,Ust-Kuyga,70.0167,135.6,-16.51,98,100,5.39,overcast clouds,2021-11-30 21:34:20
36,Saskylakh,71.9167,114.0833,-35.68,100,78,5.23,broken clouds,2021-11-30 21:34:21
37,Bethel,41.3712,-73.414,37.09,82,90,5.75,overcast clouds,2021-11-30 21:34:21
38,Cape Town,-33.9258,18.4232,65.08,73,0,5.75,clear sky,2021-11-30 21:30:06
39,Arraial Do Cabo,-22.9661,-42.0278,76.96,88,75,3.44,broken clouds,2021-11-30 21:34:21
40,Jalu,29.0331,21.5482,58.57,77,25,9.51,scattered clouds,2021-11-30 21:28:11
41,Mataura,-46.1927,168.8643,57.47,74,99,6.11,overcast clouds,2021-11-30 21:32:48
42,Luba,3.4568,8.5547,80.74,79,21,4.32,few clouds,2021-11-30 21:34:22
43,Ponta Do Sol,32.6667,-17.1,64.0,74,57,2.17,broken clouds,2021-11-30 21:34:22
44,Grindavik,63.8424,-22.4338,32.47,74,90,20.71,light snow,2021-11-30 21:34:22
45,Kirensk,57.7853,108.1119,23.77,95,100,9.42,light snow,2021-11-30 21:34:23
46,Marsh Harbour,26.5412,-77.0636,72.57,60,5,8.37,clear sky,2021-11-30 21:35:23
47,Hermanus,-34.4187,19.2345,62.8,74,88,10.85,overcast clouds,2021-11-30 21:35:23
48,Alofi,-19.0595,-169.9187,82.29,65,75,13.8,broken clouds,2021-11-30 21:35:24
49,Yumen,40.2833,97.2,18.63,63,76,14.32,broken clouds,2021-11-30 21:35:24
50,Abu Dhabi,24.4667,54.3667,75.22,67,0,5.75,clear sky,2021-11-30 21:35:24
51,Chulman,56.8479,124.9104,-23.15,100,98,2.68,overcast clouds,2021-11-30 21:35:25
52,Tabuk,17.4189,121.4443,72.84,93,98,11.7,overcast clouds,2021-11-30 21:35:25
53,Lavrentiya,65.5833,-171.0,-13.72,88,5,8.99,clear sky,2021-11-30 21:35:25
54,Aklavik,68.2191,-135.0107,-24.77,67,20,2.3,few clouds,2021-11-30 21:35:25
55,Esperance,-33.8667,121.9,48.04,69,5,5.14,clear sky,2021-11-30 21:35:26
56,Zhigansk,66.7697,123.3711,-38.15,100,100,4.41,overcast clouds,2021-11-30 21:29:23
57,Faya,18.3851,42.4509,52.32,38,0,5.44,clear sky,2021-11-30 21:32:35
58,Kassala,15.451,36.4,78.69,38,0,8.55,clear sky,2021-11-30 21:35:26
59,Salinas,36.6777,-121.6555,79.72,40,1,0.0,clear sky,2021-11-30 21:32:34
60,Dikson,73.5069,80.5464,-13.72,99,100,8.61,overcast clouds,2021-11-30 21:35:26
61,Ixtapa,20.7,-105.2,82.22,65,75,10.36,broken clouds,2021-11-30 21:35:27
62,Plettenberg Bay,-34.0527,23.3716,59.68,86,85,3.09,overcast clouds,2021-11-30 21:25:43
63,Chokurdakh,70.6333,147.9167,-13.83,98,100,6.11,overcast clouds,2021-11-30 21:32:41
64,Codrington,-38.2667,141.9667,69.21,51,68,2.62,broken clouds,2021-11-30 21:35:27
65,Puerto Ayora,-0.7393,-90.3518,80.56,84,82,9.31,broken clouds,2021-11-30 21:32:44
66,Kuytun,54.3419,101.5036,16.11,82,95,6.2,overcast clouds,2021-11-30 21:35:28
67,Innisfail,-17.5333,146.0333,87.87,78,51,3.13,broken clouds,2021-11-30 21:35:28
68,Honiara,-9.4333,159.95,82.47,78,86,2.33,overcast clouds,2021-11-30 21:28:19
69,Mount Isa,-20.7333,139.5,74.97,33,0,0.0,clear sky,2021-11-30 21:35:28
70,Port Elizabeth,-33.918,25.5701,63.1,82,75,4.61,light rain,2021-11-30 21:35:29
71,Bredasdorp,-34.5322,20.0403,62.28,70,100,8.05,overcast clouds,2021-11-30 21:34:30
72,Yelizovo,53.1873,158.3805,5.14,78,0,2.24,clear sky,2021-11-30 21:35:29
73,Malinovoye Ozero,51.6753,79.7825,18.79,87,83,4.65,broken clouds,2021-11-30 21:35:29
74,Avarua,-21.2078,-159.775,80.65,69,20,11.5,light rain,2021-11-30 21:35:30
75,Ilkal,15.9667,76.1333,67.82,94,66,13.27,broken clouds,2021-11-30 21:35:30
76,Nikolskoye,59.7035,30.7861,22.39,94,100,8.88,overcast clouds,2021-11-30 21:35:30
77,Georgetown,5.4112,100.3354,78.89,89,20,1.99,few clouds,2021-11-30 21:33:52
78,Bluff,-46.6,168.3333,57.79,74,93,15.46,overcast clouds,2021-11-30 21:32:48
79,Lebu,-37.6167,-73.65,57.83,77,2,12.5,clear sky,2021-11-30 21:35:31
80,Casper,42.8666,-106.3131,51.51,40,1,18.01,clear sky,2021-11-30 21:35:31
81,Salym,60.0625,71.4789,31.69,92,100,11.63,overcast clouds,2021-11-30 21:35:31
82,Pangnirtung,66.1451,-65.7125,19.4,86,90,5.75,light snow,2021-11-30 21:35:32
83,Cervo,43.6702,-7.4101,56.19,83,88,9.62,overcast clouds,2021-11-30 21:35:32
84,Seymchan,62.8833,152.4333,-31.9,99,94,0.83,overcast clouds,2021-11-30 21:35:32
85,Pevek,69.7008,170.3133,-12.12,100,95,0.38,overcast clouds,2021-11-30 21:35:33
86,Ha Giang,22.8333,104.9833,54.84,80,67,3.4,broken clouds,2021-11-30 21:35:33
87,Karpathos,35.507,27.2132,62.56,59,53,31.07,broken clouds,2021-11-30 21:35:33
88,Baculin,7.4525,126.5842,77.72,85,97,4.32,overcast clouds,2021-11-30 21:35:33
89,Albany,42.6001,-73.9662,35.55,75,100,2.35,overcast clouds,2021-11-30 21:32:06
90,Hithadhoo,-0.6,73.0833,81.55,76,21,7.36,few clouds,2021-11-30 21:35:34
91,Butaritari,3.0707,172.7902,81.55,76,31,9.84,scattered clouds,2021-11-30 21:35:34
92,Yellowknife,62.456,-114.3525,-15.72,69,20,8.05,few clouds,2021-11-30 21:34:25
93,Poros,37.4994,23.4536,53.37,51,0,10.0,clear sky,2021-11-30 21:36:35
94,Comodoro Rivadavia,-45.8667,-67.5,69.66,32,0,19.57,clear sky,2021-11-30 21:36:35
95,Marsa Matruh,31.3525,27.2453,65.77,60,99,20.33,overcast clouds,2021-11-30 21:36:35
96,Karasjok,69.4719,25.5112,1.51,95,100,6.26,overcast clouds,2021-11-30 21:36:36
97,Touros,-5.1989,-35.4608,83.3,78,45,11.59,scattered clouds,2021-11-30 21:32:46
98,Nouadhibou,20.931,-17.0347,67.98,56,0,17.27,clear sky,2021-11-30 21:36:36
99,Guerrero Negro,27.9769,-114.0611,70.95,58,0,12.35,clear sky,2021-11-30 21:36:36
100,Portland,45.5234,-122.6762,59.13,89,90,1.99,overcast clouds,2021-11-30 21:29:52
101,Mar Del Plata,-38.0023,-57.5575,60.82,76,0,11.99,clear sky,2021-11-30 21:36:37
102,Finschhafen,-6.6024,147.8681,82.98,76,99,3.47,overcast clouds,2021-11-30 21:36:37
103,Sao Filipe,14.8961,-24.4956,74.57,68,100,13.02,overcast clouds,2021-11-30 21:36:37
104,Santiago,-33.4569,-70.6483,78.24,31,0,9.22,clear sky,2021-11-30 21:34:55
105,Khatanga,71.9667,102.5,-40.9,100,77,1.03,broken clouds,2021-11-30 21:36:38
106,Hofn,64.2539,-15.2082,32.95,62,100,18.7,overcast clouds,2021-11-30 21:36:38
107,Pochutla,15.7432,-96.4661,89.42,52,7,7.11,clear sky,2021-11-30 21:36:38
108,Bengkulu,-3.8004,102.2655,74.23,89,99,6.58,overcast clouds,2021-11-30 21:36:39
109,Fortuna,40.5982,-124.1573,62.85,74,1,3.0,clear sky,2021-11-30 21:36:39
110,Saint-Augustin,51.226,-58.6502,30.69,96,100,10.2,snow,2021-11-30 21:36:39
111,Qandala,11.472,49.8728,76.77,43,5,5.32,clear sky,2021-11-30 21:36:40
112,Alyangula,-13.8483,136.4192,75.07,100,85,0.0,overcast clouds,2021-11-30 21:28:15
113,Kaliua,-5.0606,31.7936,67.23,91,100,2.77,light rain,2021-11-30 21:36:40
114,Thompson,55.7435,-97.8558,-2.04,78,75,3.44,broken clouds,2021-11-30 21:36:40
115,Hobart,-42.8794,147.3294,69.03,66,0,4.0,clear sky,2021-11-30 21:36:41
116,Saldanha,-33.0117,17.9442,60.85,83,29,9.04,scattered clouds,2021-11-30 21:32:36
117,Saint-Francois,46.4154,3.9054,42.24,59,90,11.5,overcast clouds,2021-11-30 21:36:41
118,Manitouwadge,49.1215,-85.8403,28.18,78,100,13.04,overcast clouds,2021-11-30 21:36:41
119,Hambantota,6.1241,81.1185,73.74,100,1,2.3,clear sky,2021-11-30 21:36:42
120,Hovd,48.0056,91.6419,16.03,58,12,1.68,few clouds,2021-11-30 21:36:42
121,Hilo,19.7297,-155.09,76.24,91,75,5.75,light rain,2021-11-30 21:29:41
122,Nichinan,31.6,131.3667,47.88,70,9,12.66,clear sky,2021-11-30 21:36:42
123,Acoua,-12.7239,45.0582,76.91,75,10,10.6,clear sky,2021-11-30 21:36:42
124,Port Moresby,-9.4431,147.1797,76.42,94,75,5.75,broken clouds,2021-11-30 21:36:43
125,Saint George,37.1041,-113.5841,73.35,22,1,1.99,clear sky,2021-11-30 21:36:11
126,Megion,61.0296,76.1136,5.02,94,100,11.63,light snow,2021-11-30 21:36:43
127,Cockburn Town,21.4612,-71.1419,80.56,61,75,6.91,broken clouds,2021-11-30 21:33:39
128,Lasa,46.6166,10.7002,47.14,93,66,7.96,broken clouds,2021-11-30 21:36:43
129,Sisimiut,66.9395,-53.6735,30.56,88,96,10.65,overcast clouds,2021-11-30 21:36:44
130,Vieques,18.425,-65.8329,84.22,65,40,14.97,scattered clouds,2021-11-30 21:36:44
131,Clyde River,70.4692,-68.5914,1.63,85,90,6.91,light snow,2021-11-30 21:36:44
132,Kodiak,57.79,-152.4072,27.91,69,20,5.75,few clouds,2021-11-30 21:33:17
133,Fairbanks,64.8378,-147.7164,-3.01,77,75,0.0,broken clouds,2021-11-30 21:35:45
134,Blenheim,-41.516,173.9528,61.18,77,83,5.01,broken clouds,2021-11-30 21:32:14
135,Waingapu,-9.6567,120.2641,79.03,81,100,5.1,light rain,2021-11-30 21:36:45
136,Rocha,-34.4833,-54.3333,63.27,92,86,12.71,overcast clouds,2021-11-30 21:36:45
137,Pietarsaari,63.65,22.6833,24.89,79,100,5.01,light snow,2021-11-30 21:36:45
138,Talnakh,69.4865,88.3972,-20.79,96,29,9.4,scattered clouds,2021-11-30 21:36:46
139,Boa Vista,2.8197,-60.6733,82.38,74,75,5.75,broken clouds,2021-11-30 21:37:46
140,Vryburg,-26.9566,24.7284,75.13,35,17,13.4,few clouds,2021-11-30 21:37:46
141,Kruisfontein,-34.0033,24.7314,60.89,86,54,3.47,broken clouds,2021-11-30 21:37:47
142,Harbour Breton,47.4833,-55.7983,45.0,79,100,36.06,overcast clouds,2021-11-30 21:37:47
143,Kelc,49.4784,17.8153,37.42,99,100,14.63,light rain,2021-11-30 21:37:47
144,Arandis,-22.4167,14.9667,53.47,52,0,3.04,clear sky,2021-11-30 21:37:48
145,Lorengau,-2.0226,147.2712,83.79,71,85,8.14,overcast clouds,2021-11-30 21:37:48
146,Mamallapuram,12.6264,80.1722,81.05,84,32,9.6,scattered clouds,2021-11-30 21:28:18
147,Upernavik,72.7868,-56.1549,23.22,97,99,4.92,overcast clouds,2021-11-30 21:37:48
148,Axim,4.8699,-2.2405,79.0,83,67,5.23,light rain,2021-11-30 21:37:49
149,Romny,50.751,33.4747,30.38,84,8,8.05,clear sky,2021-11-30 21:37:49
150,Taseyevo,57.2169,94.8978,24.03,86,100,13.27,overcast clouds,2021-11-30 21:37:49
151,Dingle,10.9995,122.6711,74.62,85,100,3.31,overcast clouds,2021-11-30 21:28:09
152,Los Llanos De Aridane,28.6585,-17.9182,62.35,80,75,5.01,broken clouds,2021-11-30 21:37:50
153,Port Macquarie,-31.4333,152.9167,66.88,100,75,4.61,broken clouds,2021-11-30 21:37:50
154,Ribeira Grande,38.5167,-28.7,61.2,77,75,5.75,broken clouds,2021-11-30 21:37:50
155,Kizukuri,40.8061,140.3861,54.1,78,100,10.09,moderate rain,2021-11-30 21:37:51
156,Eirunepe,-6.6603,-69.8736,73.6,96,100,0.43,overcast clouds,2021-11-30 21:37:51
157,Tenkodogo,11.78,-0.3697,80.44,12,94,8.19,overcast clouds,2021-11-30 21:37:51
158,Kawalu,-7.3817,108.2082,70.29,96,100,2.75,overcast clouds,2021-11-30 21:37:52
159,Cabo San Lucas,22.8909,-109.9124,83.52,56,90,10.36,overcast clouds,2021-11-30 21:33:56
160,Yamada,39.4667,141.95,59.58,81,100,29.75,light rain,2021-11-30 21:37:52
161,Suez,29.9737,32.5263,64.94,82,20,11.01,few clouds,2021-11-30 21:37:52
162,Leningradskiy,69.3833,178.4167,-21.77,95,51,10.02,broken clouds,2021-11-30 21:37:53
163,Gannan,47.9147,123.5031,6.4,88,9,4.99,clear sky,2021-11-30 21:37:53
164,Turukhansk,65.8167,87.9833,-16.29,93,63,8.32,broken clouds,2021-11-30 21:37:53
165,Craig,40.5153,-107.5464,50.76,40,1,0.0,clear sky,2021-11-30 21:37:54
166,Yar-Sale,66.8333,70.8333,-9.35,99,68,2.73,broken clouds,2021-11-30 21:37:54
167,Kudahuvadhoo,2.6708,72.8944,81.9,76,3,11.14,clear sky,2021-11-30 21:37:54
168,Gat,31.61,34.7642,68.81,100,95,10.6,overcast clouds,2021-11-30 21:37:55
169,Zonguldak,41.25,31.8333,37.45,93,100,7.87,overcast clouds,2021-11-30 21:37:55
170,Chernyshevskiy,63.0128,112.4714,-9.45,98,100,5.66,overcast clouds,2021-11-30 21:37:55
171,Soyo,-6.1349,12.3689,77.88,89,96,4.0,overcast clouds,2021-11-30 21:37:56
172,Flinders,-34.5833,150.8552,69.21,94,99,4.0,light rain,2021-11-30 21:37:56
173,Yuncheng,35.0231,110.9928,32.07,35,10,1.34,clear sky,2021-11-30 21:37:56
174,Pilot Butte,50.4668,-104.4178,38.82,80,20,8.05,few clouds,2021-11-30 21:37:56
175,Illela,13.7292,5.2975,78.78,13,16,10.11,few clouds,2021-11-30 21:37:57
176,Havelock,34.8791,-76.9013,57.43,55,1,5.01,clear sky,2021-11-30 21:37:57
177,Requena,39.4883,-1.1004,44.71,72,2,4.47,clear sky,2021-11-30 21:37:57
178,Virovitica,45.8319,17.3839,43.21,55,93,15.57,light rain,2021-11-30 21:37:58
179,Birecik,37.0294,37.9903,57.24,71,73,6.4,broken clouds,2021-11-30 21:37:58
180,Setermoen,68.861,18.3486,-11.24,86,21,7.05,few clouds,2021-11-30 21:37:58
181,Mayo,38.8876,-76.5119,52.29,50,20,0.0,few clouds,2021-11-30 21:37:59
182,Sao Joao Da Barra,-21.6403,-41.0511,77.09,92,100,3.0,overcast clouds,2021-11-30 21:37:59
183,Kaitangata,-46.2817,169.8464,55.92,76,100,12.57,overcast clouds,2021-11-30 21:37:59
184,Kloulklubed,7.0419,134.2556,82.9,76,100,20.69,overcast clouds,2021-11-30 21:32:36
185,Mehamn,71.0357,27.8492,21.38,73,0,2.3,clear sky,2021-11-30 21:39:00
186,Moussoro,13.6408,16.4901,80.92,20,10,13.2,clear sky,2021-11-30 21:39:00
187,Port-Gentil,-0.7193,8.7815,82.36,83,20,5.75,few clouds,2021-11-30 21:39:00
188,Aktau,43.65,51.2,52.38,92,47,19.69,scattered clouds,2021-11-30 21:39:01
189,Khoy,38.5504,44.9535,48.96,59,23,7.72,few clouds,2021-11-30 21:39:01
190,Ust-Omchug,61.15,149.6333,-40.47,100,50,1.05,scattered clouds,2021-11-30 21:39:01
191,College,64.8569,-147.8028,-3.01,77,75,0.0,broken clouds,2021-11-30 21:39:02
192,Bandarbeyla,9.4942,50.8122,76.26,69,30,15.75,scattered clouds,2021-11-30 21:39:02
193,Imeni Zhelyabova,58.9544,36.5956,23.59,95,100,10.89,light snow,2021-11-30 21:39:03
194,Cueramaro,20.6167,-101.7167,76.42,27,44,2.3,scattered clouds,2021-11-30 21:39:03
195,Chuy,-33.6971,-53.4616,65.35,87,25,12.26,scattered clouds,2021-11-30 21:39:03
196,Ossora,59.2353,163.0719,6.28,91,30,7.11,scattered clouds,2021-11-30 21:39:04
197,Aktas,49.7789,72.9608,8.35,92,6,4.76,clear sky,2021-11-30 21:39:04
198,Longyearbyen,78.2186,15.6401,6.64,72,0,17.27,clear sky,2021-11-30 21:32:36
199,Praia Da Vitoria,38.7333,-27.0667,62.85,88,75,11.18,broken clouds,2021-11-30 21:39:04
200,Gurupa,-1.405,-51.64,82.92,60,93,3.0,overcast clouds,2021-11-30 21:39:05
201,Yatou,37.15,122.3833,38.12,49,92,20.45,overcast clouds,2021-11-30 21:39:05
202,Port Lincoln,-34.7333,135.8667,61.45,75,50,16.37,scattered clouds,2021-11-30 21:39:05
203,Laguna,38.421,-121.4238,75.65,67,1,1.01,haze,2021-11-30 21:39:06
204,Luderitz,-26.6481,15.1594,61.75,72,0,16.33,clear sky,2021-11-30 21:39:06
205,Provideniya,64.3833,-173.3,-4.65,59,0,8.95,clear sky,2021-11-30 21:39:06
206,Banda Aceh,5.5577,95.3222,77.18,85,100,6.17,overcast clouds,2021-11-30 21:39:07
207,Teya,60.3778,92.6267,16.41,84,100,13.6,overcast clouds,2021-11-30 21:39:07
208,Stromness,58.965,-3.296,44.85,93,100,25.81,overcast clouds,2021-11-30 21:39:07
209,Geraldton,-28.7667,114.6,59.41,77,75,12.66,broken clouds,2021-11-30 21:39:08
210,Katsuura,35.1333,140.3,66.22,93,100,40.69,moderate rain,2021-11-30 21:39:08
211,Bambous Virieux,-20.3428,57.7575,77.25,78,40,4.61,light rain,2021-11-30 21:32:50
212,Torbay,47.6666,-52.7314,48.27,90,75,29.93,light intensity drizzle,2021-11-30 21:30:24
213,Svetlogorsk,52.6333,29.7333,27.84,95,83,8.79,broken clouds,2021-11-30 21:39:08
214,Huarmey,-10.0681,-78.1522,70.41,75,26,11.39,scattered clouds,2021-11-30 21:39:09
215,Mahebourg,-20.4081,57.7,77.29,78,40,4.61,light rain,2021-11-30 21:39:09
216,Vardo,70.3705,31.1107,26.8,86,75,10.36,light snow,2021-11-30 21:39:09
217,Faxinal,-24.0003,-51.3194,67.96,54,0,3.27,clear sky,2021-11-30 21:39:10
218,Tasiilaq,65.6145,-37.6368,8.17,87,15,4.81,few clouds,2021-11-30 21:32:46
219,Segezha,63.7415,34.3222,19.63,89,100,14.0,light snow,2021-11-30 21:39:10
220,Pizarro,4.9533,-77.366,75.97,91,100,4.29,light rain,2021-11-30 21:39:10
221,Ferrandina,40.5012,16.4547,41.34,68,2,2.53,clear sky,2021-11-30 21:39:11
222,Kodinsk,58.6881,99.1844,21.43,89,100,14.63,light snow,2021-11-30 21:32:49
223,Dwarka,22.2394,68.9678,76.78,51,100,7.81,overcast clouds,2021-11-30 21:39:11
224,Anadyr,64.75,177.4833,3.7,71,75,22.37,light snow,2021-11-30 21:39:12
225,Svetlaya,46.5389,138.3297,35.85,97,100,11.97,overcast clouds,2021-11-30 21:39:12
226,Rawson,-43.3002,-65.1023,75.67,28,5,26.89,clear sky,2021-11-30 21:39:12
227,Coquimbo,-29.9533,-71.3436,62.33,67,75,9.22,broken clouds,2021-11-30 21:39:13
228,Quatre Cocos,-20.2078,57.7625,77.11,75,6,9.13,clear sky,2021-11-30 21:39:13
229,Grand-Santi,4.25,-54.3833,78.31,81,92,4.27,light rain,2021-11-30 21:39:13
230,Tiksi,71.6872,128.8694,-22.0,98,99,6.58,overcast clouds,2021-11-30 21:40:14
231,Khandyga,62.6667,135.6,-13.65,98,100,2.86,overcast clouds,2021-11-30 21:40:14
232,Airai,-8.9266,125.4092,62.4,77,100,1.7,overcast clouds,2021-11-30 21:40:14
233,Abnub,27.2696,31.1511,69.53,62,100,13.09,overcast clouds,2021-11-30 21:40:15
234,South River,40.4465,-74.386,43.03,66,96,1.01,overcast clouds,2021-11-30 21:36:35
235,Goderich,43.7501,-81.7165,36.91,87,95,18.41,overcast clouds,2021-11-30 21:40:15
236,Saint Anthony,45.0205,-93.218,45.55,38,1,1.01,clear sky,2021-11-30 21:40:15
237,Ilulissat,69.2167,-51.1,24.46,95,100,9.28,light snow,2021-11-30 21:32:49
238,Springbok,-29.6643,17.8865,57.36,69,0,3.76,clear sky,2021-11-30 21:40:16
239,Natitingou,10.3042,1.3796,73.45,21,60,3.94,broken clouds,2021-11-30 21:40:16
240,Matara,5.9485,80.5353,75.7,91,72,2.86,broken clouds,2021-11-30 21:40:16
241,Sitka,57.0531,-135.33,37.29,87,90,9.22,moderate rain,2021-11-30 21:40:17
242,Shenjiamen,29.9576,122.298,46.0,63,7,20.11,clear sky,2021-11-30 21:40:17
243,Taft,31.7471,54.2088,48.15,50,0,4.61,clear sky,2021-11-30 21:40:17
244,Caravelas,-17.7125,-39.2481,78.75,83,59,14.38,light rain,2021-11-30 21:40:18
245,Micomeseng,2.1462,10.6164,70.03,99,86,2.17,light rain,2021-11-30 21:40:18
246,Okhotsk,59.3833,143.3,-18.96,85,18,14.05,few clouds,2021-11-30 21:40:18
247,Tomatlan,19.9333,-105.25,84.65,57,80,7.58,broken clouds,2021-11-30 21:40:19
248,Mitsamiouli,-11.3847,43.2844,80.2,77,10,11.41,clear sky,2021-11-30 21:40:19
249,Ust-Ilimsk,58.0006,102.6619,23.02,92,100,13.6,light snow,2021-11-30 21:40:19
250,La Ronge,55.1001,-105.2842,25.05,68,90,11.5,light snow,2021-11-30 21:40:20
251,Khorixas,-20.3667,14.9667,71.24,23,0,4.92,clear sky,2021-11-30 21:40:20
252,Muncar,-8.4333,114.3333,75.0,91,100,2.06,light rain,2021-11-30 21:40:20
253,Jacmel,18.2342,-72.5347,85.84,79,66,2.19,broken clouds,2021-11-30 21:40:21
254,Severo-Kurilsk,50.6789,156.125,30.87,69,100,8.55,overcast clouds,2021-11-30 21:40:21
255,Pucallpa,-8.3791,-74.5539,87.84,62,40,4.61,light rain,2021-11-30 21:38:45
256,Basco,20.4487,121.9702,72.01,76,100,42.88,overcast clouds,2021-11-30 21:40:21
257,Nekrasovka,48.3525,135.2325,14.02,85,90,22.37,heavy shower snow,2021-11-30 21:40:22
258,Norman Wells,65.282,-126.8329,-29.16,62,20,0.0,few clouds,2021-11-30 21:40:22
259,Safaga,26.7292,33.9365,78.28,36,100,13.67,overcast clouds,2021-11-30 21:40:22
260,Muriwai Beach,-36.8167,174.45,71.47,73,99,4.38,overcast clouds,2021-11-30 21:40:23
261,Auki,-8.7676,160.7034,84.54,67,100,3.06,overcast clouds,2021-11-30 21:40:23
262,Hirara,24.8,125.2833,65.77,63,96,36.08,overcast clouds,2021-11-30 21:40:23
263,Sarai Alamgir,32.9012,73.7559,53.58,39,2,2.15,clear sky,2021-11-30 21:40:24
264,Mascota,20.5167,-104.7833,68.31,63,96,4.16,overcast clouds,2021-11-30 21:40:24
265,Wareham,50.6889,-2.1104,53.65,86,100,17.0,overcast clouds,2021-11-30 21:40:24
266,Kemijarvi,66.7131,27.4306,13.3,91,100,11.54,light snow,2021-11-30 21:40:24
267,Mont-Dore,-22.2833,166.5833,82.0,99,7,7.67,clear sky,2021-11-30 21:40:25
268,Muyezerskiy,63.9333,31.65,18.77,94,100,9.82,light snow,2021-11-30 21:40:25
269,Batagay-Alyta,67.8006,130.4114,-28.35,99,97,2.66,overcast clouds,2021-11-30 21:40:25
270,Tuatapere,-46.1333,167.6833,57.81,64,72,4.94,broken clouds,2021-11-30 21:40:26
271,Sao Felix Do Xingu,-6.6447,-51.995,75.51,88,93,2.95,overcast clouds,2021-11-30 21:40:26
272,Haimen,23.1935,116.6142,55.29,51,0,10.0,clear sky,2021-11-30 21:40:26
273,Dalbandin,28.8947,64.4101,59.38,31,7,6.69,clear sky,2021-11-30 21:40:27
274,Padang,-0.9492,100.3543,75.58,87,76,2.64,broken clouds,2021-11-30 21:40:27
275,Carnarvon,-24.8667,113.6333,68.07,83,90,17.27,overcast clouds,2021-11-30 21:32:42
276,Nanortalik,60.1432,-45.2371,32.13,96,100,16.53,snow,2021-11-30 21:40:27
277,Copiapo,-27.3667,-70.3333,62.29,43,0,8.05,clear sky,2021-11-30 21:40:27
278,Leshukonskoye,64.8989,45.7622,17.44,92,100,14.23,light snow,2021-11-30 21:41:28
279,Sorland,67.667,12.6934,23.07,75,100,16.17,light snow,2021-11-30 21:41:28
280,Bosaso,11.2842,49.1816,74.3,57,8,0.34,clear sky,2021-11-30 21:41:29
281,Takoradi,4.8845,-1.7554,80.49,79,88,6.55,overcast clouds,2021-11-30 21:41:29
282,Mareeba,-17.0,145.4333,83.32,91,75,2.68,broken clouds,2021-11-30 21:41:29
283,Bambanglipuro,-7.95,110.2833,76.57,86,100,4.21,overcast clouds,2021-11-30 21:41:30
284,Kalawit,8.0667,122.5167,78.98,85,100,3.83,overcast clouds,2021-11-30 21:41:30
285,Maputo,-25.9653,32.5892,76.68,88,40,5.99,thunderstorm,2021-11-30 21:41:30
286,San Quintin,30.4833,-115.95,68.56,62,0,10.56,clear sky,2021-11-30 21:41:30
287,Hasaki,35.7333,140.8333,64.8,88,100,45.57,moderate rain,2021-11-30 21:41:31
288,Aquiraz,-3.9014,-38.3911,85.21,67,100,9.04,overcast clouds,2021-11-30 21:41:31
289,Faanui,-16.4833,-151.75,80.53,77,100,17.67,light rain,2021-11-30 21:41:31
290,Careiro Da Varzea,-3.2003,-59.8119,84.83,70,98,3.56,overcast clouds,2021-11-30 21:41:32
291,Maceio,-9.6658,-35.7353,81.84,78,0,12.66,clear sky,2021-11-30 21:38:51
292,Arica,-18.475,-70.3042,72.95,64,0,12.66,clear sky,2021-11-30 21:41:32
293,Vila Franca Do Campo,37.7167,-25.4333,63.19,86,100,11.36,overcast clouds,2021-11-30 21:41:32
294,Noumea,-22.2763,166.4572,82.0,99,4,7.81,clear sky,2021-11-30 21:41:33
295,Margate,51.3813,1.3862,52.97,81,100,5.99,overcast clouds,2021-11-30 21:41:33
296,Seoul,37.5683,126.9778,31.51,49,20,16.11,few clouds,2021-11-30 21:39:10
297,Pimenta Bueno,-11.6725,-61.1936,80.15,87,100,2.73,light rain,2021-11-30 21:40:18
298,Chengde,40.9725,117.9361,25.05,44,0,5.21,clear sky,2021-11-30 21:41:34
299,Boffa,10.1667,-14.0333,80.51,83,12,3.06,few clouds,2021-11-30 21:41:34
300,Sanchazi,42.0817,126.6003,8.01,94,100,7.34,overcast clouds,2021-11-30 21:41:34
301,Sovetskiy,61.3614,63.5842,31.71,98,100,11.9,snow,2021-11-30 21:41:34
302,Kang,-23.6752,22.7876,76.6,49,2,3.85,clear sky,2021-11-30 21:41:35
303,Arlit,18.7369,7.3853,71.56,23,83,5.48,broken clouds,2021-11-30 21:41:35
304,Samarai,-10.6167,150.6667,84.13,77,100,11.48,overcast clouds,2021-11-30 21:41:35
305,San Cristobal,7.7669,-72.225,78.98,69,99,3.38,overcast clouds,2021-11-30 21:40:55
306,Lamesa,32.7376,-101.951,78.06,14,83,8.28,broken clouds,2021-11-30 21:41:36
307,Vao,-22.6667,167.4833,76.93,87,0,15.64,clear sky,2021-11-30 21:32:43
308,Tautira,-17.7333,-149.15,86.02,77,100,20.8,light rain,2021-11-30 21:41:36
309,Taoudenni,22.6783,-3.9836,66.74,9,96,13.51,overcast clouds,2021-11-30 21:41:36
310,Natal,-5.795,-35.2094,83.05,78,20,10.36,few clouds,2021-11-30 21:41:37
311,Souillac,-20.5167,57.5167,77.38,78,40,4.61,light rain,2021-11-30 21:41:37
312,Fare,-16.7,-151.0167,81.91,71,100,20.58,overcast clouds,2021-11-30 21:41:37
313,Lompoc,34.6391,-120.4579,88.79,39,1,6.91,clear sky,2021-11-30 21:41:38
314,Ancud,-41.8697,-73.8203,63.93,70,9,9.86,clear sky,2021-11-30 21:41:38
315,Msowero,-6.5333,37.2,72.09,93,60,3.67,light rain,2021-11-30 21:41:38
316,Ndende,-2.4008,11.3581,73.47,98,96,1.63,moderate rain,2021-11-30 21:41:39
317,Karoi,-16.8099,29.6925,70.41,28,2,7.29,clear sky,2021-11-30 21:41:39
318,Kochki,54.3358,80.4806,4.14,88,13,5.32,few clouds,2021-11-30 21:41:39
319,Galveston,29.3669,-94.9669,76.17,69,1,6.91,clear sky,2021-11-30 21:41:40
320,Tilichiki,60.4667,166.1,0.54,94,26,3.2,scattered clouds,2021-11-30 21:41:40
321,Puri,19.8,85.85,61.32,61,11,8.86,few clouds,2021-11-30 21:41:41
322,Santa Cruz,-17.8,-63.1667,78.85,65,75,6.91,broken clouds,2021-11-30 21:42:42
323,Belyy Yar,53.6039,91.3903,5.86,88,58,0.0,mist,2021-11-30 21:42:42
324,Hadishahr,38.8431,45.6635,53.01,50,22,6.31,few clouds,2021-11-30 21:42:42
325,Hami,42.8,93.45,23.4,69,0,3.89,clear sky,2021-11-30 21:42:43
326,Pimentel,-6.8367,-79.9342,71.89,64,0,24.16,clear sky,2021-11-30 21:42:43
327,Mogocha,53.7333,119.7667,-2.51,95,80,2.39,broken clouds,2021-11-30 21:42:43
328,Puerto Colombia,10.9878,-74.9547,82.49,81,43,18.5,scattered clouds,2021-11-30 21:42:43
329,Nabire,-3.3667,135.4833,76.21,90,100,2.55,heavy intensity rain,2021-11-30 21:42:44
330,Castro,-24.7911,-50.0119,67.89,53,0,3.6,clear sky,2021-11-30 21:42:44
331,Inhambane,-23.865,35.3833,73.38,85,40,9.15,scattered clouds,2021-11-30 21:42:44
332,Sarangani,5.4033,125.4636,82.31,78,98,9.22,overcast clouds,2021-11-30 21:42:45
333,Maragogi,-9.0122,-35.2225,79.3,81,44,12.48,scattered clouds,2021-11-30 21:42:45
334,Lokosovo,61.1333,74.8167,7.02,95,100,11.81,snow,2021-11-30 21:42:45
335,Batagay,67.6333,134.6333,-24.75,99,100,1.61,overcast clouds,2021-11-30 21:42:46
336,Wamba,8.9333,8.6,77.04,21,7,4.52,clear sky,2021-11-30 21:42:46
337,Sadiqabad,28.3062,70.1307,63.27,27,15,2.42,few clouds,2021-11-30 21:42:46
338,Amapa,1.0,-52.0,79.52,75,90,4.16,overcast clouds,2021-11-30 21:42:47
339,Te Anau,-45.4167,167.7167,59.58,72,88,1.45,overcast clouds,2021-11-30 21:42:47
340,Kosonsoy,41.2561,71.5508,30.76,32,0,5.48,clear sky,2021-11-30 21:42:47
341,Naryan-Mar,67.6713,53.087,10.96,68,100,21.77,overcast clouds,2021-11-30 21:42:47
342,Lagoa,39.05,-27.9833,61.75,75,9,10.36,clear sky,2021-11-30 21:42:48
343,Novotroitsk,51.203,58.3266,27.3,84,100,6.8,overcast clouds,2021-11-30 21:42:48
344,Moose Factory,51.2585,-80.6094,24.8,93,90,4.61,snow,2021-11-30 21:42:48
345,Impfondo,1.6381,18.0667,70.81,96,93,1.21,overcast clouds,2021-11-30 21:42:52
346,Mandla,22.6,80.3833,55.65,52,97,3.04,overcast clouds,2021-11-30 21:42:52
347,Altay,47.8667,88.1167,16.66,59,15,7.7,few clouds,2021-11-30 21:42:52
348,Pacific Grove,36.6177,-121.9166,79.3,59,1,1.01,clear sky,2021-11-30 21:42:53
349,Bayji,34.9311,43.487,64.69,43,100,11.1,overcast clouds,2021-11-30 21:42:53
350,Naze,28.3667,129.4833,59.92,68,99,25.28,overcast clouds,2021-11-30 21:42:53
351,Vila Velha,-20.3297,-40.2925,78.94,90,20,8.99,moderate rain,2021-11-30 21:42:54
352,Shakawe,-18.3667,21.85,76.41,52,36,4.05,scattered clouds,2021-11-30 21:42:54
353,Saint-Leu,-21.15,55.2833,76.03,79,8,9.57,clear sky,2021-11-30 21:42:54
354,Adrar,20.5022,-10.0711,65.77,18,54,11.43,broken clouds,2021-11-30 21:42:55
355,Ornskoldsvik,63.2909,18.7153,9.55,85,97,10.36,overcast clouds,2021-11-30 21:42:55
356,Opuwo,-18.0607,13.84,74.21,23,78,5.3,broken clouds,2021-11-30 21:42:55
357,Sao Miguel Do Araguaia,-13.275,-50.1628,76.15,88,100,5.01,overcast clouds,2021-11-30 21:42:56
358,Roald,62.5833,6.1333,34.0,86,75,10.36,light snow,2021-11-30 21:42:56
359,Hamilton,39.1834,-84.5333,54.79,53,1,1.99,clear sky,2021-11-30 21:38:59
360,Poronaysk,49.2167,143.1167,33.58,98,100,13.09,snow,2021-11-30 21:42:56
361,Khovu-Aksy,51.1333,93.6,5.92,88,37,4.38,scattered clouds,2021-11-30 21:42:57
362,Shimoda,34.6667,138.95,63.1,95,100,24.79,moderate rain,2021-11-30 21:42:57
363,Muscat,23.6139,58.5922,77.02,61,88,5.99,overcast clouds,2021-11-30 21:40:25
364,Maliq,40.7058,20.6997,23.76,92,53,5.88,broken clouds,2021-11-30 21:42:57
365,Asau,46.4333,26.4,38.75,49,33,22.35,scattered clouds,2021-11-30 21:42:58
366,Agirish,61.9247,63.0231,22.6,96,100,10.4,snow,2021-11-30 21:42:58
367,Puerto Escondido,15.85,-97.0667,85.03,70,1,10.36,clear sky,2021-11-30 21:42:58
368,Walvis Bay,-22.9575,14.5053,60.1,88,0,2.3,clear sky,2021-11-30 21:42:58
369,La Tuque,47.4334,-72.7824,25.05,63,95,2.3,overcast clouds,2021-11-30 21:43:59
370,Kamiiso,41.8167,140.65,55.78,88,75,14.97,light intensity shower rain,2021-11-30 21:43:59
371,Mathbaria,22.2876,89.9593,62.91,59,32,5.41,scattered clouds,2021-11-30 21:43:59
372,Benguela,-12.5763,13.4055,77.59,78,99,5.64,overcast clouds,2021-11-30 21:44:00
373,Sinjar,36.3209,41.8754,58.21,51,100,9.57,overcast clouds,2021-11-30 21:44:00
374,Chumikan,54.7183,135.315,-13.77,96,28,8.01,scattered clouds,2021-11-30 21:44:00
375,Sao Geraldo Do Araguaia,-6.4006,-48.555,76.39,89,87,1.9,overcast clouds,2021-11-30 21:44:01
376,Vredefort,-27.0081,27.3646,64.94,67,70,9.57,broken clouds,2021-11-30 21:44:01
377,Beringovskiy,63.05,179.3167,12.97,95,100,5.55,overcast clouds,2021-11-30 21:44:01
378,Corpus Christi,27.8006,-97.3964,78.91,66,75,4.0,broken clouds,2021-11-30 21:44:02
379,Garden City,42.3256,-83.331,41.11,80,90,5.99,overcast clouds,2021-11-30 21:44:02
380,Ingham,42.6,-84.3833,40.55,85,90,6.91,overcast clouds,2021-11-30 21:44:02
381,Daru,-9.0763,143.2092,81.23,83,100,4.52,overcast clouds,2021-11-30 21:44:03
382,Maltahohe,-24.8333,16.9833,70.05,11,0,8.57,clear sky,2021-11-30 21:44:03
383,Silifke,36.3778,33.9344,62.26,74,97,16.44,overcast clouds,2021-11-30 21:44:03
384,Dicabisagan,17.0818,122.4157,77.02,89,99,17.0,overcast clouds,2021-11-30 21:44:04
385,Samur,41.8253,48.486,52.27,76,96,12.19,overcast clouds,2021-11-30 21:44:04
386,Northam,51.0333,-4.2167,52.43,97,100,25.57,overcast clouds,2021-11-30 21:44:04
387,Broken Hill,-31.95,141.4333,73.11,64,5,5.75,clear sky,2021-11-30 21:44:05
388,Yashkul,46.1711,45.3435,50.29,84,100,14.2,overcast clouds,2021-11-30 21:44:05
389,Mantua,45.1667,10.7833,45.21,71,40,7.0,scattered clouds,2021-11-30 21:44:02
390,Nizwa,22.9333,57.5333,65.91,68,56,1.07,broken clouds,2021-11-30 21:44:05
391,Itaituba,-4.2761,-55.9836,89.76,70,40,9.22,moderate rain,2021-11-30 21:44:05
392,Bilma,18.6853,12.9164,73.35,25,41,14.9,scattered clouds,2021-11-30 21:44:06
393,Ugoofaaru,5.6667,73.0,81.21,79,62,10.94,broken clouds,2021-11-30 21:44:06
394,Makat,47.6469,53.3463,46.81,64,100,20.27,overcast clouds,2021-11-30 21:44:06
395,Kalabo,-14.97,22.6814,80.2,39,88,5.84,overcast clouds,2021-11-30 21:44:07
396,Conway,35.0887,-92.4421,73.24,38,1,4.61,clear sky,2021-11-30 21:39:38
397,Marfino,55.7028,37.3822,28.65,88,90,13.42,snow,2021-11-30 21:44:07
398,Kavaratti,10.5669,72.642,81.39,78,63,17.09,broken clouds,2021-11-30 21:44:08
399,Kenai,60.5544,-151.2583,27.14,90,90,8.05,snow,2021-11-30 21:44:08
400,Gombe,10.2897,11.1673,77.79,18,29,7.36,scattered clouds,2021-11-30 21:44:08
401,Abha,18.2164,42.5053,52.05,32,0,0.0,clear sky,2021-11-30 21:44:08
402,Baghdad,33.3406,44.4009,57.11,67,0,6.91,clear sky,2021-11-30 21:39:12
403,Tselinnoye,53.0833,85.6667,11.79,84,28,5.17,scattered clouds,2021-11-30 21:44:09
404,Gladstone,-23.85,151.25,79.79,83,40,5.75,scattered clouds,2021-11-30 21:44:09
405,Fergus Falls,46.283,-96.0776,38.66,69,40,5.01,scattered clouds,2021-11-30 21:44:09
406,Primorsk,46.7348,36.3443,36.03,97,100,19.46,overcast clouds,2021-11-30 21:44:10
407,Chapais,49.7834,-74.8492,13.78,95,100,3.44,overcast clouds,2021-11-30 21:44:10
408,Poum,-20.2333,164.0167,81.75,76,15,12.62,few clouds,2021-11-30 21:44:10
409,Avera,33.194,-82.5271,66.07,38,0,6.53,clear sky,2021-11-30 21:44:11
410,Nyurba,63.2842,118.3319,-27.69,100,97,3.42,overcast clouds,2021-11-30 21:44:11
411,Melfi,40.9965,15.6514,40.23,78,11,7.58,few clouds,2021-11-30 21:44:11
412,Kon Tum,14.35,108.0,62.73,84,86,5.19,overcast clouds,2021-11-30 21:44:12
413,Samos,37.7572,26.9769,58.96,69,75,15.01,broken clouds,2021-11-30 21:44:12
414,Sola,-13.8833,167.55,83.07,84,75,0.0,broken clouds,2021-11-30 21:44:12
415,Hengyang,26.8881,112.615,44.19,59,0,3.06,clear sky,2021-11-30 21:44:12
416,Cidreira,-30.1811,-50.2056,72.39,68,0,16.98,clear sky,2021-11-30 21:44:13
417,Concarneau,47.875,-3.9225,53.06,86,33,20.58,scattered clouds,2021-11-30 21:45:13
418,Vitim,59.4511,112.5578,17.15,95,100,6.49,light snow,2021-11-30 21:45:13
419,Wonogiri,-7.8144,110.9259,74.48,90,100,2.57,overcast clouds,2021-11-30 21:45:14
420,Amazar,53.858,120.875,-3.41,97,67,2.46,broken clouds,2021-11-30 21:45:14
421,Beira,-19.8436,34.8389,75.29,83,0,7.0,clear sky,2021-11-30 21:45:14
422,Ponta Delgada,37.7333,-25.6667,63.5,88,40,14.97,scattered clouds,2021-11-30 21:45:15
423,Launceston,-41.45,147.1667,65.8,74,97,1.99,overcast clouds,2021-11-30 21:45:15
424,Kaoma,-14.7833,24.8,70.07,37,34,4.94,scattered clouds,2021-11-30 21:45:15
425,Kavieng,-2.5744,150.7967,83.68,70,86,11.95,overcast clouds,2021-11-30 21:45:16
426,Iberia,29.9502,-91.7507,71.67,37,1,8.05,clear sky,2021-11-30 21:45:16
427,Hibbing,47.4272,-92.9377,31.35,46,1,6.91,clear sky,2021-11-30 21:45:16
428,Pontiac,42.6389,-83.2911,39.9,84,90,19.57,overcast clouds,2021-11-30 21:45:17
429,Springfield,37.2153,-93.2982,66.22,51,1,5.01,clear sky,2021-11-30 21:44:55
430,Rio Gallegos,-51.6226,-69.2181,64.45,39,0,16.11,clear sky,2021-11-30 21:45:17
431,Atar,20.5169,-13.0499,69.26,19,74,10.13,broken clouds,2021-11-30 21:45:18
432,Katangli,51.7102,143.2326,24.39,93,100,16.62,light snow,2021-11-30 21:45:18
433,Vestmannaeyjar,63.4427,-20.2734,29.62,71,24,27.4,few clouds,2021-11-30 21:45:18
434,Manadhoo,5.7667,73.3833,81.21,78,77,10.16,broken clouds,2021-11-30 21:45:18
435,Kedrovyy,56.1667,91.8167,25.21,79,97,11.74,overcast clouds,2021-11-30 21:45:19
436,Sehithwa,-20.4667,22.7167,80.98,40,9,2.77,clear sky,2021-11-30 21:45:19
437,Leh,34.1667,77.5833,15.06,51,1,2.93,clear sky,2021-11-30 21:45:19
438,Rio Claro,-22.4114,-47.5614,75.52,88,30,5.48,scattered clouds,2021-11-30 21:45:20
439,Revelstoke,50.9832,-118.2023,41.02,93,90,10.36,light rain,2021-11-30 21:45:20
440,Khasan,42.4308,130.6434,21.0,71,100,28.43,overcast clouds,2021-11-30 21:45:20
441,Sluknov,51.0037,14.4526,39.06,84,100,14.29,overcast clouds,2021-11-30 21:45:21
442,Sibolga,1.7427,98.7792,74.12,88,85,3.18,overcast clouds,2021-11-30 21:45:21
443,Alice Springs,-23.7,133.8833,74.75,33,0,4.61,clear sky,2021-11-30 21:44:58
444,Yenagoa,4.9247,6.2642,77.2,89,85,4.32,overcast clouds,2021-11-30 21:45:21
445,Namibe,-15.1961,12.1522,70.72,77,80,2.8,broken clouds,2021-11-30 21:45:22
446,Waddan,29.1614,16.139,53.69,52,87,6.17,overcast clouds,2021-11-30 21:45:22
447,Kjollefjord,70.9457,27.3465,21.25,73,0,2.3,clear sky,2021-11-30 21:45:22
448,Mangrol,21.1167,70.1167,72.25,82,100,13.35,moderate rain,2021-11-30 21:45:23
449,Manggar,-2.8833,108.2667,77.68,84,69,2.37,broken clouds,2021-11-30 21:45:23
450,Madridejos,39.4682,-3.532,43.32,70,2,3.2,clear sky,2021-11-30 21:45:23
451,Pitea,65.3172,21.4794,1.49,83,10,11.18,clear sky,2021-11-30 21:45:24
452,Itarema,-2.9248,-39.9167,80.73,76,100,15.23,overcast clouds,2021-11-30 21:45:24
453,Mirnyy,62.5353,113.9611,-7.58,98,100,5.39,overcast clouds,2021-11-30 21:45:24
454,San Policarpo,12.1791,125.5072,78.13,90,100,6.6,overcast clouds,2021-11-30 21:45:24
455,Salisbury,51.0693,-1.7957,53.17,84,90,17.27,overcast clouds,2021-11-30 21:45:25
456,Santa Vitoria Do Palmar,-33.5189,-53.3681,65.7,85,24,12.41,few clouds,2021-11-30 21:45:25
457,Labuan,5.2767,115.2417,77.11,100,20,0.0,few clouds,2021-11-30 21:45:26
458,Dalby,-27.1833,151.2667,68.99,98,71,9.28,broken clouds,2021-11-30 21:45:26
459,Saint-Joseph,-21.3667,55.6167,75.56,79,19,8.28,few clouds,2021-11-30 21:45:26
460,Suntar,62.1444,117.6319,-10.91,98,100,4.32,overcast clouds,2021-11-30 21:45:27
461,Jiayuguan,39.8167,98.3,19.42,46,53,2.59,broken clouds,2021-11-30 21:45:27
462,Constitucion,-35.3333,-72.4167,59.29,77,27,10.29,scattered clouds,2021-11-30 21:45:27
463,Yulara,-25.2406,130.9889,67.84,45,0,3.44,clear sky,2021-11-30 21:45:29
464,Kununurra,-15.7667,128.7333,76.98,65,7,3.44,clear sky,2021-11-30 21:46:29
465,Krasnyy Kholm,58.0607,37.1203,25.18,95,100,17.4,snow,2021-11-30 21:46:30
466,Gossaigaon,26.4481,89.989,60.75,63,96,4.76,overcast clouds,2021-11-30 21:46:30
467,Nemuro,43.3236,145.575,52.61,81,100,40.47,overcast clouds,2021-11-30 21:46:30
468,Iisalmi,63.5592,27.1907,17.62,93,100,11.77,snow,2021-11-30 21:46:31
469,Yeppoon,-23.1333,150.7333,76.78,77,68,1.68,broken clouds,2021-11-30 21:46:31
470,Calabozo,8.9242,-67.4293,88.21,39,100,5.91,overcast clouds,2021-11-30 21:46:31
471,Bodden Town,19.2833,-81.25,82.4,69,20,8.01,few clouds,2021-11-30 21:46:32
472,Luanda,-8.8368,13.2343,78.8,83,0,6.91,clear sky,2021-11-30 21:42:39
473,Gushikawa,26.3544,127.8686,63.99,59,90,19.57,overcast clouds,2021-11-30 21:46:32
474,Nome,64.5011,-165.4064,-7.53,60,1,8.05,clear sky,2021-11-30 21:43:20
475,Vila,42.0304,-8.1588,42.33,91,100,1.39,overcast clouds,2021-11-30 21:46:33
476,Marau,-28.4492,-52.2,67.05,65,0,4.43,clear sky,2021-11-30 21:45:03
477,Hirado,33.3597,129.5531,47.55,62,100,31.9,overcast clouds,2021-11-30 21:46:33
478,Mhango,-3.2833,32.85,69.94,79,100,2.86,light rain,2021-11-30 21:46:34
479,Doka,13.5167,35.7667,80.35,21,0,11.12,clear sky,2021-11-30 21:46:34
480,Manthani,18.65,79.6667,66.04,54,14,2.51,few clouds,2021-11-30 21:46:34
481,Salalah,17.0151,54.0924,75.29,27,0,4.61,clear sky,2021-11-30 21:46:35
482,Khani,41.9563,42.9566,49.57,79,21,3.09,few clouds,2021-11-30 21:46:35
483,Shugurovo,54.5083,52.1326,37.62,99,100,13.56,overcast clouds,2021-11-30 21:46:35
484,Andenes,69.3143,16.1194,15.08,73,0,6.91,clear sky,2021-11-30 21:46:36
485,Tecolutla,20.4833,-97.0167,73.47,74,3,5.55,clear sky,2021-11-30 21:46:36
486,Varkkallai,8.7341,76.7067,78.58,86,78,3.76,broken clouds,2021-11-30 21:46:38
487,Ostersund,63.1792,14.6357,8.62,92,86,0.0,overcast clouds,2021-11-30 21:46:38
488,Karratha,-20.7377,116.8463,83.73,28,18,9.17,few clouds,2021-11-30 21:46:38
489,Whyalla,-33.0333,137.5833,67.89,73,11,12.66,few clouds,2021-11-30 21:46:39
490,Kharabali,47.4196,47.2568,44.65,93,67,10.51,broken clouds,2021-11-30 21:46:39
491,Gorontalo,0.5412,123.0595,76.35,92,100,1.48,overcast clouds,2021-11-30 21:46:39
492,Zyryanskoye,56.8306,86.6258,13.21,87,99,10.0,overcast clouds,2021-11-30 21:46:39
493,Olafsvik,64.8945,-23.7142,31.35,60,98,18.86,overcast clouds,2021-11-30 21:46:40
494,Mwense,-10.3845,28.698,70.12,91,78,2.95,broken clouds,2021-11-30 21:46:40
495,Nelson Bay,-32.7167,152.15,70.09,88,100,1.99,overcast clouds,2021-11-30 21:46:40
496,Ayia Galini,35.1,24.6833,56.79,64,67,10.0,broken clouds,2021-11-30 21:46:41
497,Baiyin,36.5583,104.2081,13.08,41,0,1.57,clear sky,2021-11-30 21:46:41
498,Tamboril,19.4854,-70.611,83.17,65,20,6.91,few clouds,2021-11-30 21:46:41
499,Nauta,-4.5061,-73.5757,80.76,81,97,1.1,overcast clouds,2021-11-30 21:46:42
500,Riyadh,24.6877,46.7219,59.14,27,0,2.21,clear sky,2021-11-30 21:43:47
501,Thiruvananthapuram,8.4833,76.9167,78.78,89,20,0.0,mist,2021-11-30 21:46:22
502,Westport,41.1415,-73.3579,39.74,76,90,5.99,overcast clouds,2021-11-30 21:42:41
503,Pesnica Pri Mariboru,46.6069,15.6767,40.77,52,55,10.36,broken clouds,2021-11-30 21:46:42
504,Kayes,14.0,-11.0,84.18,14,100,7.07,overcast clouds,2021-11-30 21:46:43
505,Agua Prieta,31.3,-109.5667,74.3,24,0,0.67,clear sky,2021-11-30 21:46:43
506,Quepos,9.4236,-84.1652,82.6,82,75,2.86,broken clouds,2021-11-30 21:46:43
507,San Patricio,28.017,-97.5169,79.21,63,87,9.55,overcast clouds,2021-11-30 21:46:44
508,Penzance,50.1186,-5.5371,53.76,93,100,32.3,overcast clouds,2021-11-30 21:46:44
509,Berlevag,70.8578,29.0864,19.35,68,0,3.44,clear sky,2021-11-30 21:46:44
510,Acapulco,16.8634,-99.8901,85.82,70,40,9.22,scattered clouds,2021-11-30 21:47:45
511,Magan,39.9683,-3.931,50.47,62,0,4.05,clear sky,2021-11-30 21:47:45
512,Balykshi,47.0667,51.8667,39.2,87,75,4.47,mist,2021-11-30 21:47:45
513,San Rafael,-34.6177,-68.3301,64.56,68,95,6.2,overcast clouds,2021-11-30 21:47:46
514,Omboue,-1.5746,9.2618,77.7,89,97,4.76,overcast clouds,2021-11-30 21:47:46
515,Porto Novo,6.4965,2.6036,84.02,81,97,6.24,overcast clouds,2021-11-30 21:47:47
516,Marawi,7.9986,124.2928,64.65,92,100,1.01,overcast clouds,2021-11-30 21:47:47
517,Batamshinskiy,50.5594,58.2747,24.78,78,100,19.91,overcast clouds,2021-11-30 21:47:47
518,Along,28.1667,94.7667,52.65,65,56,1.7,broken clouds,2021-11-30 21:47:48
519,Killybegs,54.6333,-8.45,47.44,84,100,27.25,overcast clouds,2021-11-30 21:47:48
520,Porrentruy,47.4153,7.0752,40.91,91,100,11.25,overcast clouds,2021-11-30 21:47:49
521,Imbituba,-28.24,-48.6703,75.09,77,0,3.29,clear sky,2021-11-30 21:47:49
522,Ikalamavony,-21.15,46.5833,69.71,85,68,2.93,light rain,2021-11-30 21:47:49
523,Esmeralda,21.8525,-78.1169,81.64,68,21,9.1,few clouds,2021-11-30 21:47:50
524,Volot,57.9278,30.7025,22.8,94,100,13.56,light snow,2021-11-30 21:47:50
525,Guarapari,-20.6667,-40.4975,78.89,95,99,2.75,moderate rain,2021-11-30 21:47:51
526,Dakoro,14.5106,6.765,74.86,16,81,11.9,broken clouds,2021-11-30 21:47:51
527,Palamos,41.8484,3.1291,50.68,92,1,4.03,clear sky,2021-11-30 21:47:51
528,Port-De-Bouc,43.4,4.9833,46.42,66,0,13.8,clear sky,2021-11-30 21:47:52
529,Traiguen,-38.25,-72.6833,71.06,34,6,12.71,clear sky,2021-11-30 21:47:52
530,Fereydunshahr,32.941,50.121,39.31,36,25,3.4,scattered clouds,2021-11-30 21:47:52
531,Haines Junction,60.7522,-137.5108,-2.25,78,100,4.61,overcast clouds,2021-11-30 21:47:53
532,Lagos,6.5833,3.75,82.72,83,100,5.26,overcast clouds,2021-11-30 21:44:12
533,Koroni,36.8,21.95,51.08,52,40,26.57,scattered clouds,2021-11-30 21:47:53
534,Caxias,38.7031,-9.2767,55.04,74,0,3.0,clear sky,2021-11-30 21:47:53
535,Mackay,-21.15,149.2,79.05,88,90,3.44,overcast clouds,2021-11-30 21:47:54
536,Perambalur,11.2333,78.8833,74.79,97,19,5.53,few clouds,2021-11-30 21:47:54
537,Palmer,42.1584,-72.3287,37.02,64,75,9.22,broken clouds,2021-11-30 21:45:30
538,Usinsk,65.9939,57.5281,13.78,74,100,24.47,overcast clouds,2021-11-30 21:47:54
539,Iralaya,15.0,-83.2333,84.29,65,6,12.82,clear sky,2021-11-30 21:47:55
540,Fort Frances,48.5999,-93.4003,28.62,62,1,5.75,clear sky,2021-11-30 21:47:55
541,Canhotinho,-8.8822,-36.1911,74.53,71,93,12.15,overcast clouds,2021-11-30 21:47:55
542,Paulo Afonso,-9.4061,-38.2147,86.54,45,95,6.98,overcast clouds,2021-11-30 21:47:56
543,Ayorou,14.7308,0.9174,78.03,9,94,9.62,overcast clouds,2021-11-30 21:47:56
544,Khash,28.2211,61.2158,50.92,45,6,1.92,clear sky,2021-11-30 21:47:56
545,Zhezkazgan,47.8043,67.7144,19.78,87,5,4.72,clear sky,2021-11-30 21:47:56
546,Cao Bang,22.6667,106.25,53.29,79,74,2.95,broken clouds,2021-11-30 21:47:57
547,Saraland,30.8207,-88.0706,68.72,59,36,1.99,scattered clouds,2021-11-30 21:47:57
548,Bernburg,51.8,11.7333,43.61,82,97,10.45,overcast clouds,2021-11-30 21:47:57
549,Mayor Pablo Lagerenza,-19.9309,-60.7718,83.53,37,64,1.61,broken clouds,2021-11-30 21:47:58
550,Cordoba,-31.4135,-64.1811,86.85,23,20,17.27,few clouds,2021-11-30 21:47:58
551,Baraolt,46.0751,25.6003,31.64,76,95,16.46,overcast clouds,2021-11-30 21:47:58
552,Kungurtug,50.5994,97.5228,0.61,95,48,1.59,scattered clouds,2021-11-30 21:47:59
553,Tura,25.5198,90.2201,60.71,72,83,4.27,broken clouds,2021-11-30 21:47:59
554,Truckee,39.328,-120.1833,67.77,36,0,1.99,clear sky,2021-11-30 21:47:59
555,Toora-Khem,52.4675,96.11,-1.43,100,94,1.3,overcast clouds,2021-11-30 21:49:00
556,Antalaha,-14.9003,50.2788,71.8,79,85,4.74,overcast clouds,2021-11-30 21:49:00
557,Cacu,-18.5567,-51.1308,74.84,89,100,4.21,overcast clouds,2021-11-30 21:49:00
558,Atasu,48.6814,71.6433,10.27,89,8,4.07,clear sky,2021-11-30 21:49:01
559,Caldwell,43.6629,-116.6874,54.32,71,20,0.0,few clouds,2021-11-30 21:49:01
560,Esmeraldas,-19.7625,-44.3139,77.11,87,100,3.85,overcast clouds,2021-11-30 21:49:01
561,Port Said,31.2565,32.2841,67.98,77,40,9.22,scattered clouds,2021-11-30 21:49:02
562,Abalak,58.1286,68.5944,27.57,83,100,13.27,overcast clouds,2021-11-30 21:49:02
563,Port Hardy,50.6996,-127.4199,51.76,100,90,8.05,moderate rain,2021-11-30 21:45:25
564,Drumnadrochit,57.3344,-4.4799,46.78,94,100,4.18,overcast clouds,2021-11-30 21:49:02
565,Tarko-Sale,64.9225,77.785,-25.31,100,19,1.19,few clouds,2021-11-30 21:49:03
566,Grand Haven,43.0631,-86.2284,43.11,71,90,3.0,overcast clouds,2021-11-30 21:49:03
567,Bardiyah,31.7561,25.0865,62.67,65,100,20.22,overcast clouds,2021-11-30 21:49:03
568,Iracoubo,5.4802,-53.2011,79.48,84,100,8.97,overcast clouds,2021-11-30 21:49:04
569,Santa Maria,-29.6842,-53.8069,79.9,39,20,5.75,few clouds,2021-11-30 21:49:04
570,Araouane,18.9048,-3.5265,74.71,17,100,11.39,overcast clouds,2021-11-30 21:49:04
571,Thinadhoo,0.5333,72.9333,81.63,77,7,9.44,clear sky,2021-11-30 21:49:04
572,Yaan,7.3833,8.5667,81.01,19,10,2.17,clear sky,2021-11-30 21:49:05
573,Zyryanka,65.75,150.85,-14.31,99,100,4.03,overcast clouds,2021-11-30 21:49:05
574,Pervomayskoye,43.919,46.7102,51.89,78,0,13.87,clear sky,2021-11-30 21:49:05
575,Inirida,3.8653,-67.9239,77.67,92,100,3.51,overcast clouds,2021-11-30 21:49:06
576,Excelsior Springs,39.3392,-94.2261,55.49,50,1,0.0,clear sky,2021-11-30 21:49:06
577,Manaia,-39.55,174.1333,65.8,82,94,10.76,overcast clouds,2021-11-30 21:49:06
578,Oxford,51.7522,-1.256,52.29,88,90,4.0,overcast clouds,2021-11-30 21:45:51
579,Oneonta,42.4529,-75.0638,35.38,88,100,5.68,light snow,2021-11-30 21:49:07
580,Chitungwiza,-18.0127,31.0756,69.46,35,1,9.6,clear sky,2021-11-30 21:49:07
581,Awbari,26.5921,12.7805,55.63,13,11,7.0,few clouds,2021-11-30 21:49:07
582,Bodmin,50.4715,-4.7243,51.85,100,75,27.63,drizzle,2021-11-30 21:49:08
583,Kalengwa,-13.4659,25.0027,69.28,35,23,5.48,few clouds,2021-11-30 21:49:08
584,Kehra,59.3361,25.3211,20.98,81,100,13.35,overcast clouds,2021-11-30 21:49:08
585,Kiama,-34.6833,150.8667,69.28,95,99,1.99,light rain,2021-11-30 21:49:09
586,Broome,42.2506,-75.833,34.86,77,90,3.0,overcast clouds,2021-11-30 21:49:09
587,Qom,34.6401,50.8764,55.04,52,90,2.06,overcast clouds,2021-11-30 21:49:09
588,Kahului,20.8947,-156.47,83.46,79,40,16.11,light rain,2021-11-30 21:49:09
589,Conselheiro Lafaiete,-20.6603,-43.7861,69.37,91,100,1.92,overcast clouds,2021-11-30 21:49:10
590,Lata,40.1629,-8.3327,45.05,79,3,1.77,clear sky,2021-11-30 21:49:10
591,Bahia De Caraquez,-0.6,-80.4167,77.18,74,90,12.5,overcast clouds,2021-11-30 21:49:10
592,Dudinka,69.4058,86.1778,-21.39,99,26,7.31,scattered clouds,2021-11-30 21:49:11
593,Chimoio,-19.1164,33.4833,69.66,100,0,2.62,clear sky,2021-11-30 21:49:11
594,Bereznik,62.8551,42.7072,24.26,95,100,8.59,light snow,2021-11-30 21:49:11
595,Arkhangelskoye,55.8549,35.3287,24.69,93,100,17.13,light snow,2021-11-30 21:49:12
596,Biak,-0.9131,122.8766,77.22,74,99,2.68,overcast clouds,2021-11-30 21:49:12
597,Nalut,30.3333,10.85,51.96,51,65,8.84,broken clouds,2021-11-30 21:49:12
598,Porosozero,62.7191,32.727,17.67,93,100,7.38,light snow,2021-11-30 21:49:13
599,Timra,62.487,17.3257,14.68,71,0,10.36,clear sky,2021-11-30 21:49:13
600,Tazovskiy,67.4667,78.7,-25.26,100,10,5.19,clear sky,2021-11-30 21:49:13
601,Verkhnevilyuysk,63.4453,120.3167,-32.35,100,75,3.6,broken clouds,2021-11-30 21:49:14
602,Sao Desiderio,-12.3633,-44.9733,78.87,69,99,3.74,overcast clouds,2021-11-30 21:49:14
603,At-Bashi,41.1702,75.8106,12.04,64,20,2.86,few clouds,2021-11-30 21:50:14
604,Ulaanbaatar,47.9077,106.8832,-11.07,70,0,4.47,clear sky,2021-11-30 21:47:31
605,Ajuchitlan,20.7167,-100.0167,72.28,29,7,8.59,clear sky,2021-11-30 21:50:15
606,Tamandare,-8.7597,-35.1047,79.38,81,45,11.32,scattered clouds,2021-11-30 21:50:15
607,Paris,48.8534,2.3488,48.97,90,90,5.99,overcast clouds,2021-11-30 21:48:35
608,Durango,24.8333,-104.8333,70.88,28,100,7.14,overcast clouds,2021-11-30 21:45:56
609,Sai Buri,6.7013,101.6168,76.8,88,99,8.5,heavy intensity rain,2021-11-30 21:50:15
610,Boyolangu,-8.1181,111.8935,74.93,90,100,1.77,overcast clouds,2021-11-30 21:50:16
611,Tessalit,20.1986,1.0114,75.72,19,100,9.15,overcast clouds,2021-11-30 21:50:16
612,Miri,4.4148,114.0089,77.14,94,20,2.3,few clouds,2021-11-30 21:50:16
613,Coos Bay,43.3665,-124.2179,62.31,93,1,6.91,clear sky,2021-11-30 21:50:16
614,Semnan,35.5729,53.3971,49.06,53,53,0.78,broken clouds,2021-11-30 21:50:17
615,Kutum,14.2,24.6667,69.62,24,1,10.04,clear sky,2021-11-30 21:50:17
616,Pimenteiras,-6.2453,-41.4192,86.43,45,94,4.14,overcast clouds,2021-11-30 21:50:17
617,Bilibino,68.0546,166.4372,1.0,98,100,3.0,light snow,2021-11-30 21:50:18
618,Jablah,35.3614,35.9256,68.29,68,40,9.22,scattered clouds,2021-11-30 21:50:18
619,Solhan,38.9634,41.0293,43.43,84,1,4.83,clear sky,2021-11-30 21:50:18
620,Dolinsk,47.35,142.8,42.66,99,100,5.64,moderate rain,2021-11-30 21:50:19
621,Ca Mau,9.1769,105.15,75.2,93,100,9.22,overcast clouds,2021-11-30 21:50:19
622,Mount Gambier,-37.8333,140.7667,64.31,77,40,13.8,scattered clouds,2021-11-30 21:50:19
623,Baherden,38.4362,57.4316,60.22,35,21,7.63,few clouds,2021-11-30 21:50:20
624,Ippy,6.2679,21.2247,72.23,79,89,3.69,overcast clouds,2021-11-30 21:50:20
625,Bayburt,40.2589,40.2278,44.47,74,4,17.0,clear sky,2021-11-30 21:50:20
626,Bereda,43.2686,-7.5406,53.01,100,100,3.67,overcast clouds,2021-11-30 21:50:21
627,Morondava,-20.2833,44.2833,75.09,86,9,5.39,clear sky,2021-11-30 21:50:21
628,Svetlyy,54.675,20.1347,30.25,77,70,7.18,broken clouds,2021-11-30 21:50:21
629,Lunenburg,44.3835,-64.3155,33.85,76,18,18.41,few clouds,2021-11-30 21:50:22
630,Komsomolskiy,40.4272,71.7189,36.82,46,1,1.79,clear sky,2021-11-30 21:50:22
631,Kokopo,-4.352,152.2633,82.74,71,73,3.47,broken clouds,2021-11-30 21:50:22
632,Outlook,51.5001,-107.0513,44.29,93,37,2.95,scattered clouds,2021-11-30 21:50:23
633,Morges,46.5113,6.4985,41.34,91,97,9.82,overcast clouds,2021-11-30 21:50:23
634,Pisco,-13.7,-76.2167,69.85,68,0,21.85,clear sky,2021-11-30 21:50:23
635,Maoming,21.65,110.9,53.67,44,40,5.41,scattered clouds,2021-11-30 21:50:24
636,Qesarya,32.5189,34.9046,70.23,66,98,14.67,overcast clouds,2021-11-30 21:50:26
637,Havoysund,70.9963,24.6622,16.68,81,58,12.95,broken clouds,2021-11-30 21:50:26
638,Port Augusta,-32.5,137.7667,81.72,22,22,4.29,few clouds,2021-11-30 21:50:26
639,Acajutla,13.5928,-89.8275,84.65,55,0,6.26,clear sky,2021-11-30 21:50:26
640,Ust-Maya,60.4167,134.5333,-19.08,100,96,2.1,overcast clouds,2021-11-30 21:50:27
641,Butterworth,5.3991,100.3638,79.0,89,20,1.99,few clouds,2021-11-30 21:50:27
642,Lakki Marwat,32.6079,70.9114,60.51,27,0,1.52,clear sky,2021-11-30 21:50:27
643,Cherskiy,68.75,161.3,-15.74,98,100,5.46,light snow,2021-11-30 21:50:28
644,San Juan,-31.5375,-68.5364,89.53,16,66,12.91,broken clouds,2021-11-30 21:50:28
645,Tiruvallur,13.15,79.9167,80.62,90,65,4.54,broken clouds,2021-11-30 21:50:28
646,Rabat,33.9911,-6.8401,56.16,89,75,4.61,broken clouds,2021-11-30 21:50:29
647,Taquara,-29.6506,-50.7806,80.31,61,37,5.1,scattered clouds,2021-11-30 21:50:29
648,Dickinson,29.4608,-95.0513,76.15,66,40,1.01,scattered clouds,2021-11-30 21:48:36
649,Henties Bay,-22.116,14.2845,59.86,91,0,9.01,clear sky,2021-11-30 21:51:29
650,Tual,-5.6667,132.75,84.25,71,100,6.96,light rain,2021-11-30 21:51:30
651,Bandundu,-3.3167,17.3667,72.68,95,100,3.09,moderate rain,2021-11-30 21:51:30
652,Kalmunai,7.4167,81.8167,77.05,87,17,5.39,few clouds,2021-11-30 21:51:30
653,Lodja,-3.4833,23.4333,68.88,99,100,1.12,light rain,2021-11-30 21:51:31
654,Santa Marinella,42.0345,11.8536,46.71,64,52,6.42,broken clouds,2021-11-30 21:51:31
655,Port Hawkesbury,45.6169,-61.3485,33.69,92,90,8.01,overcast clouds,2021-11-30 21:51:31
656,Cam Ranh,11.9214,109.1591,78.76,69,75,23.02,light rain,2021-11-30 21:51:31
657,Monrovia,6.3005,-10.7969,76.77,80,51,7.81,broken clouds,2021-11-30 21:51:32
658,Yarmouth,41.7057,-70.2286,39.96,68,90,6.91,overcast clouds,2021-11-30 21:51:32
659,Midland,31.9974,-102.0779,78.48,21,1,10.36,clear sky,2021-11-30 21:51:32
660,Porto Santo,33.072,-16.3415,63.3,72,20,2.3,few clouds,2021-11-30 21:51:34
661,Ipixuna,-1.7625,-48.8043,85.95,84,99,4.36,overcast clouds,2021-11-30 21:51:35
662,Bure,10.7,37.0667,56.86,49,3,5.28,clear sky,2021-11-30 21:51:36
663,Romitan,39.9343,64.3814,42.75,61,0,4.61,clear sky,2021-11-30 21:51:36
664,Aligudarz,33.4006,49.6949,46.83,37,44,4.09,scattered clouds,2021-11-30 21:51:36
665,Mount Hagen,-5.8581,144.2274,59.76,100,90,0.0,fog,2021-11-30 21:51:37
666,Atbasar,51.8,68.3333,6.3,91,10,6.06,clear sky,2021-11-30 21:51:37
667,Funadhoo,6.15,73.2667,81.39,78,96,10.96,overcast clouds,2021-11-30 21:51:37
668,Notre-Dame-Du-Lac,47.6136,-68.7964,23.34,93,25,2.71,scattered clouds,2021-11-30 21:51:38
669,Muravlenko,63.7898,74.523,-6.83,98,100,8.95,overcast clouds,2021-11-30 21:51:38
670,Suphan Buri,14.4742,100.1222,75.97,49,100,16.33,overcast clouds,2021-11-30 21:51:38
671,Rochegda,62.8,43.25,24.24,94,100,9.66,light snow,2021-11-30 21:51:39
672,Novokuznetsk,53.7557,87.1099,8.51,93,22,5.01,few clouds,2021-11-30 21:51:39
673,Ayr,55.4627,-4.6339,48.18,93,40,21.85,moderate rain,2021-11-30 21:51:39
674,Sangar,63.9242,127.4739,-15.52,92,100,7.87,overcast clouds,2021-11-30 21:51:40
675,Brigantine,39.4101,-74.3646,45.01,60,90,5.75,overcast clouds,2021-11-30 21:50:43
676,Bobo Dioulasso,11.1771,-4.2979,73.85,68,0,2.3,clear sky,2021-11-30 21:51:40
677,Portoferraio,42.8115,10.3146,44.1,63,53,14.99,broken clouds,2021-11-30 21:51:40
678,Ngunguru,-35.6167,174.5,74.16,66,100,3.18,heavy intensity rain,2021-11-30 21:51:40
679,Prince Rupert,54.3161,-130.3201,51.49,78,75,20.71,light rain,2021-11-30 21:51:41
680,Rio Grande,-32.035,-52.0986,75.31,81,11,18.1,few clouds,2021-11-30 21:51:41
681,Zhigalovo,54.8097,105.1578,21.6,80,98,7.85,overcast clouds,2021-11-30 21:51:41
682,Kaeo,-35.1,173.7833,74.32,67,100,2.15,overcast clouds,2021-11-30 21:51:42
683,Vostok,46.4856,135.8833,8.19,97,100,4.76,snow,2021-11-30 21:51:42
684,Winslow,35.0242,-110.6974,59.97,28,1,1.99,clear sky,2021-11-30 21:51:42
685,Ternate,0.8,127.4,79.92,81,100,2.37,overcast clouds,2021-11-30 21:51:43
686,Finote Selam,10.7,37.2667,57.63,53,2,4.27,clear sky,2021-11-30 21:51:43
